{"businesses": [{"id": "kP1b-7BO_VhWk_0tvuA_tw", "alias": "carmelinas-boston-2", "name": "Carmelina's", "image_url": "https://s3-media2.fl.yelpcdn.com/bphoto/rxZBwIYFKwrn2U4676YmiQ/o.jpg", "is_closed": false, "url": "https://www.yelp.com/biz/carmelinas-boston-2?adjust_creative=E0XwormNM634G-e4HD3Eaw&utm_campaign=yelp_api_v3&utm_medium=api_v3_business_search&utm_source=E0XwormNM634G-e4HD3Eaw", "review_count": 3007, "categories": [{"alias": "italian", "title": "Italian"}], "rating": 4.5, "coordinates": {"latitude": 42.36388, "longitude": -71.05415}, "transactions": ["restaurant_reservation", "delivery"], "price": "$$", "location": {"address1": "307 Hanover St", "address2": "", "address3": "", "city": "Boston", "zip_code": "02113", "country": "US", "state": "MA", "display_address": ["307 Hanover St", "Boston, MA 02113"]}, "phone": "+16177420020", "display_phone": "(617) 742-0020", "distance": 2272.1796574310406}, {"id": "sA2gVTJOBH7Qk32p48ENdQ", "alias": "saltie-girl-boston", "name": "Saltie Girl", "image_url": "https://s3-media3.fl.yelpcdn.com/bphoto/ko3zreBkbZM5T2nTlcOsWQ/o.jpg", "is_closed": false, "url": "https://www.yelp.com/biz/saltie-girl-boston?adjust_creative=E0XwormNM634G-e4HD3Eaw&utm_campaign=yelp_api_v3&utm_medium=api_v3_business_search&utm_source=E0XwormNM634G-e4HD3Eaw", "review_count": 1761, "categories": [{"alias": "seafood", "title": "Seafood"}, {"alias": "cocktailbars", "title": "Cocktail Bars"}], "rating": 4.0, "coordinates": {"latitude": 42.35116, "longitude": -71.07758}, "transactions": ["delivery", "pickup"], "price": "$$$", "location": {"address1": "279 Dartmouth St", "address2": "", "address3": null, "city": "Boston", "zip_code": "02116", "country": "US", "state": "MA", "display_address": ["279 Dartmouth St", "Boston, MA 02116"]}, "phone": "+16172670691", "display_phone": "(617) 267-0691", "distance": 638.2135436456861}, {"id": "y2w6rFaO0XEiG5mFfOsiFA", "alias": "neptune-oyster-boston", "name": "Neptune Oyster", "image_url": "https://s3-media3.fl.yelpcdn.com/bphoto/ZVaN5dj-yCVIiPk7VtFhOw/o.jpg", "is_closed": false, "url": "https://www.yelp.com/biz/neptune-oyster-boston?adjust_creative=E0XwormNM634G-e4HD3Eaw&utm_campaign=yelp_api_v3&utm_medium=api_v3_business_search&utm_source=E0XwormNM634G-e4HD3Eaw", "review_count": 5879, "categories": [{"alias": "seafood", "title": "Seafood"}, {"alias": "salad", "title": "Salad"}, {"alias": "sandwiches", "title": "Sandwiches"}], "rating": 4.5, "coordinates": {"latitude": 42.36321, "longitude": -71.05594}, "transactions": ["delivery"], "price": "$$$", "location": {"address1": "63 Salem St", "address2": "", "address3": "", "city": "Boston", "zip_code": "02113", "country": "US", "state": "MA", "display_address": ["63 Salem St", "Boston, MA 02113"]}, "phone": "+16177423474", "display_phone": "(617) 742-3474", "distance": 2122.4029385375484}, {"id": "jIxhHWqxKd5ZWBIEmsFxWQ", "alias": "citrus-and-salt-boston", "name": "Citrus & Salt", "image_url": "https://s3-media1.fl.yelpcdn.com/bphoto/ruqu4N6lb89r2ILsIVb_mg/o.jpg", "is_closed": false, "url": "https://www.yelp.com/biz/citrus-and-salt-boston?adjust_creative=E0XwormNM634G-e4HD3Eaw&utm_campaign=yelp_api_v3&utm_medium=api_v3_business_search&utm_source=E0XwormNM634G-e4HD3Eaw", "review_count": 801, "categories": [{"alias": "cocktailbars", "title": "Cocktail Bars"}, {"alias": "mexican", "title": "Mexican"}], "rating": 4.0, "coordinates": {"latitude": 42.348728, "longitude": -71.072284}, "transactions": ["delivery", "pickup"], "price": "$$", "location": {"address1": "142 Berkeley St", "address2": "", "address3": null, "city": "Boston", "zip_code": "02116", "country": "US", "state": "MA", "display_address": ["142 Berkeley St", "Boston, MA 02116"]}, "phone": "+16174246711", "display_phone": "(617) 424-6711", "distance": 130.48865521659965}, {"id": "t_FFcwUutj9mIYKGw_gHsQ", "alias": "the-salty-pig-boston", "name": "The Salty Pig", "image_url": "https://s3-media4.fl.yelpcdn.com/bphoto/_IjbdFb1yRExH3Puh-P4WA/o.jpg", "is_closed": false, "url": "https://www.yelp.com/biz/the-salty-pig-boston?adjust_creative=E0XwormNM634G-e4HD3Eaw&utm_campaign=yelp_api_v3&utm_medium=api_v3_business_search&utm_source=E0XwormNM634G-e4HD3Eaw", "review_count": 1809, "categories": [{"alias": "newamerican", "title": "American (New)"}, {"alias": "italian", "title": "Italian"}, {"alias": "pizza", "title": "Pizza"}], "rating": 4.0, "coordinates": {"latitude": 42.3469, "longitude": -71.076121}, "transactions": ["delivery"], "price": "$$", "location": {"address1": "130 Dartmouth St", "address2": "", "address3": "", "city": "Boston", "zip_code": "02116", "country": "US", "state": "MA", "display_address": ["130 Dartmouth St", "Boston, MA 02116"]}, "phone": "+16175366200", "display_phone": "(617) 536-6200", "distance": 414.30722121565236}, {"id": "tKRg7pxR2Sw7aSrHTQS5mQ", "alias": "buttermilk-and-bourbon-boston-2", "name": "Buttermilk & Bourbon", "image_url": "https://s3-media1.fl.yelpcdn.com/bphoto/hICsbCDokfxYl9tIGY55rw/o.jpg", "is_closed": false, "url": "https://www.yelp.com/biz/buttermilk-and-bourbon-boston-2?adjust_creative=E0XwormNM634G-e4HD3Eaw&utm_campaign=yelp_api_v3&utm_medium=api_v3_business_search&utm_source=E0XwormNM634G-e4HD3Eaw", "review_count": 925, "categories": [{"alias": "southern", "title": "Southern"}, {"alias": "bars", "title": "Bars"}, {"alias": "tapas", "title": "Tapas Bars"}], "rating": 4.0, "coordinates": {"latitude": 42.3513, "longitude": -71.07864}, "transactions": ["delivery", "pickup"], "price": "$$", "location": {"address1": "160 Commonwealth Ave", "address2": "", "address3": null, "city": "Boston", "zip_code": "02116", "country": "US", "state": "MA", "display_address": ["160 Commonwealth Ave", "Boston, MA 02116"]}, "phone": "+16172661122", "display_phone": "(617) 266-1122", "distance": 725.7267127712291}, {"id": "mnFhrH1Fi5GoSuV-5gVpnA", "alias": "krasi-boston-2", "name": "Krasi", "image_url": "https://s3-media1.fl.yelpcdn.com/bphoto/At4SGYDjt7ond6XugoOrLQ/o.jpg", "is_closed": false, "url": "https://www.yelp.com/biz/krasi-boston-2?adjust_creative=E0XwormNM634G-e4HD3Eaw&utm_campaign=yelp_api_v3&utm_medium=api_v3_business_search&utm_source=E0XwormNM634G-e4HD3Eaw", "review_count": 305, "categories": [{"alias": "mediterranean", "title": "Mediterranean"}, {"alias": "greek", "title": "Greek"}, {"alias": "wine_bars", "title": "Wine Bars"}], "rating": 4.5, "coordinates": {"latitude": 42.3486717927888, "longitude": -71.084109}, "transactions": ["delivery"], "price": "$$", "location": {"address1": "48 Gloucester St", "address2": "", "address3": null, "city": "Boston", "zip_code": "02115", "country": "US", "state": "MA", "display_address": ["48 Gloucester St", "Boston, MA 02115"]}, "phone": "+16175360230", "display_phone": "(617) 536-0230", "distance": 1061.326692953109}, {"id": "nIS4O-TwLYkA_P1Cu0SfhA", "alias": "yvonnes-boston", "name": "Yvonne's", "image_url": "https://s3-media3.fl.yelpcdn.com/bphoto/8ZNXlvNjow5xoUtjrQ1U-w/o.jpg", "is_closed": false, "url": "https://www.yelp.com/biz/yvonnes-boston?adjust_creative=E0XwormNM634G-e4HD3Eaw&utm_campaign=yelp_api_v3&utm_medium=api_v3_business_search&utm_source=E0XwormNM634G-e4HD3Eaw", "review_count": 1247, "categories": [{"alias": "newamerican", "title": "American (New)"}, {"alias": "lounges", "title": "Lounges"}], "rating": 4.0, "coordinates": {"latitude": 42.355517, "longitude": -71.0614361}, "transactions": ["delivery"], "price": "$$", "location": {"address1": "2 Winter Pl", "address2": null, "address3": "", "city": "Boston", "zip_code": "02108", "country": "US", "state": "MA", "display_address": ["2 Winter Pl", "Boston, MA 02108"]}, "phone": "+16172670047", "display_phone": "(617) 267-0047", "distance": 1173.8300908685944}, {"id": "ecNJ3i9leabp-kFVtf_WTw", "alias": "the-banks-fish-house-boston", "name": "The Banks Fish House", "image_url": "https://s3-media4.fl.yelpcdn.com/bphoto/Hwmhi_-snr6XD-TzbkhiFQ/o.jpg", "is_closed": false, "url": "https://www.yelp.com/biz/the-banks-fish-house-boston?adjust_creative=E0XwormNM634G-e4HD3Eaw&utm_campaign=yelp_api_v3&utm_medium=api_v3_business_search&utm_source=E0XwormNM634G-e4HD3Eaw", "review_count": 161, "categories": [{"alias": "seafood", "title": "Seafood"}, {"alias": "cocktailbars", "title": "Cocktail Bars"}], "rating": 4.5, "coordinates": {"latitude": 42.34875, "longitude": -71.07392}, "transactions": [], "price": "$$$", "location": {"address1": "406 Stuart St", "address2": "", "address3": null, "city": "Boston", "zip_code": "02116", "country": "US", "state": "MA", "display_address": ["406 Stuart St", "Boston, MA 02116"]}, "phone": "+16173990015", "display_phone": "(617) 399-0015", "distance": 255.40866370003107}, {"id": "E3Qqa99qFy1oeGMv0wPBBQ", "alias": "tora-japanese-restaurant-boston", "name": "Tora Japanese Restaurant", "image_url": "https://s3-media2.fl.yelpcdn.com/bphoto/mgk-On_AUUgVXfjyFqx2Ww/o.jpg", "is_closed": false, "url": "https://www.yelp.com/biz/tora-japanese-restaurant-boston?adjust_creative=E0XwormNM634G-e4HD3Eaw&utm_campaign=yelp_api_v3&utm_medium=api_v3_business_search&utm_source=E0XwormNM634G-e4HD3Eaw", "review_count": 636, "categories": [{"alias": "japanese", "title": "Japanese"}, {"alias": "sushi", "title": "Sushi Bars"}, {"alias": "poke", "title": "Poke"}], "rating": 4.5, "coordinates": {"latitude": 42.35076, "longitude": -71.06054}, "transactions": ["delivery", "pickup"], "price": "$$", "location": {"address1": "20B Tyler St", "address2": null, "address3": "", "city": "Boston", "zip_code": "02111", "country": "US", "state": "MA", "display_address": ["20B Tyler St", "Boston, MA 02111"]}, "phone": "+16175426688", "display_phone": "(617) 542-6688", "distance": 934.5498165988719}, {"id": "v4Xj1RbLT6VRK7kHKPRLZg", "alias": "little-whale-boston", "name": "Little Whale", "image_url": "https://s3-media3.fl.yelpcdn.com/bphoto/HL70rUQzdDkDV1avKK5sdg/o.jpg", "is_closed": false, "url": "https://www.yelp.com/biz/little-whale-boston?adjust_creative=E0XwormNM634G-e4HD3Eaw&utm_campaign=yelp_api_v3&utm_medium=api_v3_business_search&utm_source=E0XwormNM634G-e4HD3Eaw", "review_count": 13, "categories": [{"alias": "bars", "title": "Bars"}, {"alias": "seafood", "title": "Seafood"}], "rating": 5.0, "coordinates": {"latitude": 42.34859, "longitude": -71.08532}, "transactions": [], "location": {"address1": "314 Newbury St", "address2": "", "address3": null, "city": "Boston", "zip_code": "02115", "country": "US", "state": "MA", "display_address": ["314 Newbury St", "Boston, MA 02115"]}, "phone": "+18572770800", "display_phone": "(857) 277-0800", "distance": 1159.9294841027106}, {"id": "NYa-JphaaB41ElGsb3iawA", "alias": "toro-boston-2", "name": "Toro", "image_url": "https://s3-media2.fl.yelpcdn.com/bphoto/vavJneJjBulHvZAGit-bdQ/o.jpg", "is_closed": false, "url": "https://www.yelp.com/biz/toro-boston-2?adjust_creative=E0XwormNM634G-e4HD3Eaw&utm_campaign=yelp_api_v3&utm_medium=api_v3_business_search&utm_source=E0XwormNM634G-e4HD3Eaw", "review_count": 2410, "categories": [{"alias": "tapas", "title": "Tapas Bars"}, {"alias": "spanish", "title": "Spanish"}, {"alias": "cocktailbars", "title": "Cocktail Bars"}], "rating": 4.0, "coordinates": {"latitude": 42.33698788, "longitude": -71.07592429}, "transactions": ["delivery"], "price": "$$$", "location": {"address1": "1704 Washington St", "address2": null, "address3": "", "city": "Boston", "zip_code": "02118", "country": "US", "state": "MA", "display_address": ["1704 Washington St", "Boston, MA 02118"]}, "phone": "+16175364300", "display_phone": "(617) 536-4300", "distance": 1266.7234617418144}, {"id": "lCMN0raxlHnBFDoLgkz4sw", "alias": "milkweed-boston", "name": "Milkweed", "image_url": "https://s3-media4.fl.yelpcdn.com/bphoto/QFzMsXZHbY19tCrmZ20Snw/o.jpg", "is_closed": false, "url": "https://www.yelp.com/biz/milkweed-boston?adjust_creative=E0XwormNM634G-e4HD3Eaw&utm_campaign=yelp_api_v3&utm_medium=api_v3_business_search&utm_source=E0XwormNM634G-e4HD3Eaw", "review_count": 934, "categories": [{"alias": "newamerican", "title": "American (New)"}, {"alias": "breakfast_brunch", "title": "Breakfast & Brunch"}, {"alias": "cocktailbars", "title": "Cocktail Bars"}], "rating": 4.0, "coordinates": {"latitude": 42.332183, "longitude": -71.099586}, "transactions": ["delivery"], "price": "$$", "location": {"address1": "1508 Tremont St", "address2": "", "address3": null, "city": "Boston", "zip_code": "02120", "country": "US", "state": "MA", "display_address": ["1508 Tremont St", "Boston, MA 02120"]}, "phone": "+16175168913", "display_phone": "(617) 516-8913", "distance": 2908.3126242712588}, {"id": "nvlxtOwbGqPW8E6_sYTfvw", "alias": "contessa-boston", "name": "Contessa", "image_url": "https://s3-media4.fl.yelpcdn.com/bphoto/2dkA8gsjvl8vvJdU9jqxMA/o.jpg", "is_closed": false, "url": "https://www.yelp.com/biz/contessa-boston?adjust_creative=E0XwormNM634G-e4HD3Eaw&utm_campaign=yelp_api_v3&utm_medium=api_v3_business_search&utm_source=E0XwormNM634G-e4HD3Eaw", "review_count": 269, "categories": [{"alias": "italian", "title": "Italian"}, {"alias": "breakfast_brunch", "title": "Breakfast & Brunch"}, {"alias": "cocktailbars", "title": "Cocktail Bars"}], "rating": 4.0, "coordinates": {"latitude": 42.352785523860874, "longitude": -71.07133903078342}, "transactions": [], "price": "$$$$", "location": {"address1": "3 Newbury St", "address2": "", "address3": null, "city": "Boston", "zip_code": "02116", "country": "US", "state": "MA", "display_address": ["3 Newbury St", "Boston, MA 02116"]}, "phone": "+12122543000", "display_phone": "(212) 254-3000", "distance": 549.784438299108}, {"id": "2u_w3rthRzR2uEihW5BC4A", "alias": "giacomos-ristorante-boston-boston", "name": "Giacomo's Ristorante - Boston", "image_url": "https://s3-media1.fl.yelpcdn.com/bphoto/_OBj6mCvVcT0ChqWb_kB-Q/o.jpg", "is_closed": false, "url": "https://www.yelp.com/biz/giacomos-ristorante-boston-boston?adjust_creative=E0XwormNM634G-e4HD3Eaw&utm_campaign=yelp_api_v3&utm_medium=api_v3_business_search&utm_source=E0XwormNM634G-e4HD3Eaw", "review_count": 3959, "categories": [{"alias": "italian", "title": "Italian"}, {"alias": "wine_bars", "title": "Wine Bars"}, {"alias": "seafood", "title": "Seafood"}], "rating": 4.0, "coordinates": {"latitude": 42.36458, "longitude": -71.05344}, "transactions": ["delivery", "pickup"], "price": "$$", "location": {"address1": "355 Hanover St", "address2": "", "address3": "", "city": "Boston", "zip_code": "02113", "country": "US", "state": "MA", "display_address": ["355 Hanover St", "Boston, MA 02113"]}, "phone": "+16175239026", "display_phone": "(617) 523-9026", "distance": 2371.606607135425}, {"id": "mP1EdIafQKMuOm9O4PzAfA", "alias": "barcelona-wine-bar-south-end-boston-6", "name": "Barcelona Wine Bar South End", "image_url": "https://s3-media3.fl.yelpcdn.com/bphoto/LDZGfiM5_QoUrMHCLG_PMg/o.jpg", "is_closed": false, "url": "https://www.yelp.com/biz/barcelona-wine-bar-south-end-boston-6?adjust_creative=E0XwormNM634G-e4HD3Eaw&utm_campaign=yelp_api_v3&utm_medium=api_v3_business_search&utm_source=E0XwormNM634G-e4HD3Eaw", "review_count": 1318, "categories": [{"alias": "spanish", "title": "Spanish"}, {"alias": "wine_bars", "title": "Wine Bars"}, {"alias": "tapasmallplates", "title": "Tapas/Small Plates"}], "rating": 4.5, "coordinates": {"latitude": 42.3449355147724, "longitude": -71.0705436362457}, "transactions": ["delivery"], "price": "$$", "location": {"address1": "525 Tremont St", "address2": null, "address3": "", "city": "Boston", "zip_code": "02116", "country": "US", "state": "MA", "display_address": ["525 Tremont St", "Boston, MA 02116"]}, "phone": "+16172662600", "display_phone": "(617) 266-2600", "distance": 328.22766734138577}, {"id": "lJdytfj2BBFfv0_ax_P4WQ", "alias": "dumpling-xuan-cambridge", "name": "Dumpling Xuan", "image_url": "https://s3-media1.fl.yelpcdn.com/bphoto/T6Gi2s2WNO8qg3nfO08hEQ/o.jpg", "is_closed": false, "url": "https://www.yelp.com/biz/dumpling-xuan-cambridge?adjust_creative=E0XwormNM634G-e4HD3Eaw&utm_campaign=yelp_api_v3&utm_medium=api_v3_business_search&utm_source=E0XwormNM634G-e4HD3Eaw", "review_count": 122, "categories": [{"alias": "chinese", "title": "Chinese"}, {"alias": "seafood", "title": "Seafood"}, {"alias": "noodles", "title": "Noodles"}], "rating": 4.5, "coordinates": {"latitude": 42.37165370284239, "longitude": -71.08401135469217}, "transactions": ["restaurant_reservation", "delivery", "pickup"], "price": "$$", "location": {"address1": "465 Cambridge St", "address2": null, "address3": "", "city": "Cambridge", "zip_code": "02141", "country": "US", "state": "MA", "display_address": ["465 Cambridge St", "Cambridge, MA 02141"]}, "phone": "+16178682888", "display_phone": "(617) 868-2888", "distance": 2848.0312610461933}, {"id": "m1ertlgQIxAl74D7nCsvbQ", "alias": "earls-kitchen-bar-boston-2", "name": "Earls Kitchen + Bar", "image_url": "https://s3-media4.fl.yelpcdn.com/bphoto/9d7pJWPLrNuv3vasfzbc5Q/o.jpg", "is_closed": false, "url": "https://www.yelp.com/biz/earls-kitchen-bar-boston-2?adjust_creative=E0XwormNM634G-e4HD3Eaw&utm_campaign=yelp_api_v3&utm_medium=api_v3_business_search&utm_source=E0XwormNM634G-e4HD3Eaw", "review_count": 1268, "categories": [{"alias": "newamerican", "title": "American (New)"}, {"alias": "cocktailbars", "title": "Cocktail Bars"}], "rating": 4.0, "coordinates": {"latitude": 42.34722514515457, "longitude": -71.08189270406079}, "transactions": ["delivery", "pickup"], "price": "$$", "location": {"address1": "800 Boylston St", "address2": "Unit 107", "address3": null, "city": "Boston", "zip_code": "02199", "country": "US", "state": "MA", "display_address": ["800 Boylston St", "Unit 107", "Boston, MA 02199"]}, "phone": "+18579570949", "display_phone": "(857) 957-0949", "distance": 877.8611370710688}, {"id": "nyy38msunExaObJOeH7j0Q", "alias": "bootleg-special-boston", "name": "Bootleg Special", "image_url": "https://s3-media1.fl.yelpcdn.com/bphoto/DrKLEOsg5sZ-yjoMb4uTUQ/o.jpg", "is_closed": false, "url": "https://www.yelp.com/biz/bootleg-special-boston?adjust_creative=E0XwormNM634G-e4HD3Eaw&utm_campaign=yelp_api_v3&utm_medium=api_v3_business_search&utm_source=E0XwormNM634G-e4HD3Eaw", "review_count": 951, "categories": [{"alias": "seafood", "title": "Seafood"}, {"alias": "cocktailbars", "title": "Cocktail Bars"}, {"alias": "tapasmallplates", "title": "Tapas/Small Plates"}], "rating": 4.0, "coordinates": {"latitude": 42.3471199, "longitude": -71.06834}, "transactions": ["restaurant_reservation", "delivery", "pickup"], "price": "$$", "location": {"address1": "400 Tremont St", "address2": null, "address3": "", "city": "Boston", "zip_code": "02116", "country": "US", "state": "MA", "display_address": ["400 Tremont St", "Boston, MA 02116"]}, "phone": "+16174511800", "display_phone": "(617) 451-1800", "distance": 258.08125426364296}, {"id": "xlOMKjE4omTgkI1eduWj8A", "alias": "the-friendly-toast-back-bay", "name": "The Friendly Toast", "image_url": "https://s3-media3.fl.yelpcdn.com/bphoto/cxWRnVaQzi8qahw7qPBHYg/o.jpg", "is_closed": false, "url": "https://www.yelp.com/biz/the-friendly-toast-back-bay?adjust_creative=E0XwormNM634G-e4HD3Eaw&utm_campaign=yelp_api_v3&utm_medium=api_v3_business_search&utm_source=E0XwormNM634G-e4HD3Eaw", "review_count": 2496, "categories": [{"alias": "bars", "title": "Bars"}, {"alias": "breakfast_brunch", "title": "Breakfast & Brunch"}, {"alias": "diners", "title": "Diners"}], "rating": 4.5, "coordinates": {"latitude": 42.3483479318913, "longitude": -71.0732730478048}, "transactions": ["restaurant_reservation", "delivery", "pickup"], "price": "$$", "location": {"address1": "35 Stanhope St", "address2": null, "address3": "", "city": "Back Bay", "zip_code": "02116", "country": "US", "state": "MA", "display_address": ["35 Stanhope St", "Back Bay, MA 02116"]}, "phone": "+16174567849", "display_phone": "(617) 456-7849", "distance": 176.04842333150364}], "total": 5300, "region": {"center": {"longitude": -71.07124328613281, "latitude": 42.34784169448538}}}